header: 
  seq: 1
  stamp: 
    secs: 1554452947
    nsecs: 790960052
  frame_id: "map"
pose: 
  pose: 
    position: 
      x: 0.180068419499
      y: 0.0313799735316
      z: 0.0
    orientation: 
      x: 0.0
      y: 0.0
      z: -0.0841086543137
      w: 0.996456589255
  covariance: [0.16321347653482063, -0.008595651320556189, 0.0, 0.0, 0.0, 0.0, -0.008595651320556185, 0.20181134303142464, 0.0, 0.0, 0.0, 0.0, 0.0, 0.0, 0.0, 0.0, 0.0, 0.0, 0.0, 0.0, 0.0, 0.0, 0.0, 0.0, 0.0, 0.0, 0.0, 0.0, 0.0, 0.0, 0.0, 0.0, 0.0, 0.0, 0.0, 0.06527184007336503]
---
header: 
  seq: 2
  stamp: 
    secs: 1554453005
    nsecs: 383842476
  frame_id: "map"
pose: 
  pose: 
    position: 
      x: 0.417808368045
      y: -0.0876517797456
      z: 0.0
    orientation: 
      x: 0.0
      y: 0.0
      z: -0.104842369137
      w: 0.994488852443
  covariance: [0.09800205640601237, -0.003773351182002928, 0.0, 0.0, 0.0, 0.0, -0.003773351182002928, 0.1594796788774452, 0.0, 0.0, 0.0, 0.0, 0.0, 0.0, 0.0, 0.0, 0.0, 0.0, 0.0, 0.0, 0.0, 0.0, 0.0, 0.0, 0.0, 0.0, 0.0, 0.0, 0.0, 0.0, 0.0, 0.0, 0.0, 0.0, 0.0, 0.063477966060667]
---
header: 
  seq: 3
  stamp: 
    secs: 1554453006
    nsecs: 588834022
  frame_id: "map"
pose: 
  pose: 
    position: 
      x: 0.659879436097
      y: -0.206863507977
      z: 0.0
    orientation: 
      x: 0.0
      y: 0.0
      z: -0.0963996124091
      w: 0.995342712199
  covariance: [0.06368863521232637, -0.0019446604602714468, 0.0, 0.0, 0.0, 0.0, -0.0019446604602714468, 0.12284708567874866, 0.0, 0.0, 0.0, 0.0, 0.0, 0.0, 0.0, 0.0, 0.0, 0.0, 0.0, 0.0, 0.0, 0.0, 0.0, 0.0, 0.0, 0.0, 0.0, 0.0, 0.0, 0.0, 0.0, 0.0, 0.0, 0.0, 0.0, 0.0603391630098625]
---
header: 
  seq: 4
  stamp: 
    secs: 1554453007
    nsecs: 792575074
  frame_id: "map"
pose: 
  pose: 
    position: 
      x: 0.88344591041
      y: -0.287721467579
      z: 0.0
    orientation: 
      x: 0.0
      y: 0.0
      z: -0.0774768066151
      w: 0.996994154665
  covariance: [0.051364038710905224, -0.0002640181080350579, 0.0, 0.0, 0.0, 0.0, -0.00026401810803500236, 0.10196372387891757, 0.0, 0.0, 0.0, 0.0, 0.0, 0.0, 0.0, 0.0, 0.0, 0.0, 0.0, 0.0, 0.0, 0.0, 0.0, 0.0, 0.0, 0.0, 0.0, 0.0, 0.0, 0.0, 0.0, 0.0, 0.0, 0.0, 0.0, 0.050638733938732645]
---
header: 
  seq: 5
  stamp: 
    secs: 1554453008
    nsecs: 997545530
  frame_id: "map"
pose: 
  pose: 
    position: 
      x: 1.10292834465
      y: -0.374913168941
      z: 0.0
    orientation: 
      x: 0.0
      y: 0.0
      z: -0.0655277484263
      w: 0.99785074745
  covariance: [0.04158664606370599, 0.0003073006723153804, 0.0, 0.0, 0.0, 0.0, 0.0003073006723153804, 0.08134302487785705, 0.0, 0.0, 0.0, 0.0, 0.0, 0.0, 0.0, 0.0, 0.0, 0.0, 0.0, 0.0, 0.0, 0.0, 0.0, 0.0, 0.0, 0.0, 0.0, 0.0, 0.0, 0.0, 0.0, 0.0, 0.0, 0.0, 0.0, 0.04311614715911417]
---
header: 
  seq: 6
  stamp: 
    secs: 1554453010
    nsecs: 201266534
  frame_id: "map"
pose: 
  pose: 
    position: 
      x: 1.32604674017
      y: -0.442268279661
      z: 0.0
    orientation: 
      x: 0.0
      y: 0.0
      z: -0.0665115580079
      w: 0.997785654663
  covariance: [0.03364168277217883, 0.0025298977950060086, 0.0, 0.0, 0.0, 0.0, 0.0025298977950060086, 0.06911286017745771, 0.0, 0.0, 0.0, 0.0, 0.0, 0.0, 0.0, 0.0, 0.0, 0.0, 0.0, 0.0, 0.0, 0.0, 0.0, 0.0, 0.0, 0.0, 0.0, 0.0, 0.0, 0.0, 0.0, 0.0, 0.0, 0.0, 0.0, 0.03686150789681842]
---
header: 
  seq: 7
  stamp: 
    secs: 1554453011
    nsecs: 606144770
  frame_id: "map"
pose: 
  pose: 
    position: 
      x: 1.59332905935
      y: -0.514704591594
      z: 0.0
    orientation: 
      x: 0.0
      y: 0.0
      z: -0.0561736765633
      w: 0.99842101243
  covariance: [0.02215477927403109, 0.004849059252456489, 0.0, 0.0, 0.0, 0.0, 0.004849059252456489, 0.04844007687801716, 0.0, 0.0, 0.0, 0.0, 0.0, 0.0, 0.0, 0.0, 0.0, 0.0, 0.0, 0.0, 0.0, 0.0, 0.0, 0.0, 0.0, 0.0, 0.0, 0.0, 0.0, 0.0, 0.0, 0.0, 0.0, 0.0, 0.0, 0.025437473534430866]
---
header: 
  seq: 8
  stamp: 
    secs: 1554453012
    nsecs: 809877386
  frame_id: "map"
pose: 
  pose: 
    position: 
      x: 1.83279889344
      y: -0.553301977946
      z: 0.0
    orientation: 
      x: 0.0
      y: 0.0
      z: -0.0317395478059
      w: 0.999496173632
  covariance: [0.015406724815487216, 0.004830028517721852, 0.0, 0.0, 0.0, 0.0, 0.0048300285177216296, 0.03856998263975159, 0.0, 0.0, 0.0, 0.0, 0.0, 0.0, 0.0, 0.0, 0.0, 0.0, 0.0, 0.0, 0.0, 0.0, 0.0, 0.0, 0.0, 0.0, 0.0, 0.0, 0.0, 0.0, 0.0, 0.0, 0.0, 0.0, 0.0, 0.017810773148165832]
---
header: 
  seq: 9
  stamp: 
    secs: 1554453014
    nsecs:  13599900
  frame_id: "map"
pose: 
  pose: 
    position: 
      x: 2.06955067997
      y: -0.586149966186
      z: 0.0
    orientation: 
      x: 0.0
      y: 0.0
      z: -0.016220600913
      w: 0.999868437399
  covariance: [0.01141954156755176, 0.0034482481455306857, 0.0, 0.0, 0.0, 0.0, 0.0034482481455306857, 0.030409700385789273, 0.0, 0.0, 0.0, 0.0, 0.0, 0.0, 0.0, 0.0, 0.0, 0.0, 0.0, 0.0, 0.0, 0.0, 0.0, 0.0, 0.0, 0.0, 0.0, 0.0, 0.0, 0.0, 0.0, 0.0, 0.0, 0.0, 0.0, 0.01396920452527302]
---
header: 
  seq: 10
  stamp: 
    secs: 1554453015
    nsecs: 421081972
  frame_id: "map"
pose: 
  pose: 
    position: 
      x: 2.28746794841
      y: -0.604747641052
      z: 0.0
    orientation: 
      x: 0.0
      y: 0.0
      z: 0.0848602688621
      w: 0.996392861661
  covariance: [0.010233386259550947, 0.004119453371336901, 0.0, 0.0, 0.0, 0.0, 0.004119453371336901, 0.021541195100447164, 0.0, 0.0, 0.0, 0.0, 0.0, 0.0, 0.0, 0.0, 0.0, 0.0, 0.0, 0.0, 0.0, 0.0, 0.0, 0.0, 0.0, 0.0, 0.0, 0.0, 0.0, 0.0, 0.0, 0.0, 0.0, 0.0, 0.0, 0.009622828525033529]
---
header: 
  seq: 11
  stamp: 
    secs: 1554453016
    nsecs:  19691833
  frame_id: "map"
pose: 
  pose: 
    position: 
      x: 2.34511074594
      y: -0.590826664191
      z: 0.0
    orientation: 
      x: 0.0
      y: 0.0
      z: 0.226092528104
      w: 0.974105830357
  covariance: [0.010428935694600128, 0.003739664499205375, 0.0, 0.0, 0.0, 0.0, 0.003739664499205375, 0.0185266188224677, 0.0, 0.0, 0.0, 0.0, 0.0, 0.0, 0.0, 0.0, 0.0, 0.0, 0.0, 0.0, 0.0, 0.0, 0.0, 0.0, 0.0, 0.0, 0.0, 0.0, 0.0, 0.0, 0.0, 0.0, 0.0, 0.0, 0.0, 0.007236800396699787]
---
header: 
  seq: 12
  stamp: 
    secs: 1554453016
    nsecs: 420963534
  frame_id: "map"
pose: 
  pose: 
    position: 
      x: 2.34263715577
      y: -0.59688833998
      z: 0.0
    orientation: 
      x: 0.0
      y: 0.0
      z: 0.35382589186
      w: 0.935311305528
  covariance: [0.010173668012201986, 0.0035005255309352723, 0.0, 0.0, 0.0, 0.0, 0.0035005255309352723, 0.015433128601487045, 0.0, 0.0, 0.0, 0.0, 0.0, 0.0, 0.0, 0.0, 0.0, 0.0, 0.0, 0.0, 0.0, 0.0, 0.0, 0.0, 0.0, 0.0, 0.0, 0.0, 0.0, 0.0, 0.0, 0.0, 0.0, 0.0, 0.0, 0.0062918643785925075]
---
header: 
  seq: 13
  stamp: 
    secs: 1554453016
    nsecs: 822166808
  frame_id: "map"
pose: 
  pose: 
    position: 
      x: 2.36944089134
      y: -0.576651131643
      z: 0.0
    orientation: 
      x: 0.0
      y: 0.0
      z: 0.502147526198
      w: 0.86478197364
  covariance: [0.008956853722802194, 0.0031886905253721842, 0.0, 0.0, 0.0, 0.0, 0.0031886905253721842, 0.014654374857461738, 0.0, 0.0, 0.0, 0.0, 0.0, 0.0, 0.0, 0.0, 0.0, 0.0, 0.0, 0.0, 0.0, 0.0, 0.0, 0.0, 0.0, 0.0, 0.0, 0.0, 0.0, 0.0, 0.0, 0.0, 0.0, 0.0, 0.0, 0.006079769934625701]
---
header: 
  seq: 14
  stamp: 
    secs: 1554453017
    nsecs: 223428563
  frame_id: "map"
pose: 
  pose: 
    position: 
      x: 2.37413994277
      y: -0.572279316906
      z: 0.0
    orientation: 
      x: 0.0
      y: 0.0
      z: 0.589000147599
      w: 0.808132926026
  covariance: [0.008139009936109609, 0.002671598373696016, 0.0, 0.0, 0.0, 0.0, 0.002671598373696016, 0.012614247678508828, 0.0, 0.0, 0.0, 0.0, 0.0, 0.0, 0.0, 0.0, 0.0, 0.0, 0.0, 0.0, 0.0, 0.0, 0.0, 0.0, 0.0, 0.0, 0.0, 0.0, 0.0, 0.0, 0.0, 0.0, 0.0, 0.0, 0.0, 0.005110316668965116]
---
header: 
  seq: 15
  stamp: 
    secs: 1554453017
    nsecs: 624683132
  frame_id: "map"
pose: 
  pose: 
    position: 
      x: 2.37513124682
      y: -0.534031164863
      z: 0.0
    orientation: 
      x: 0.0
      y: 0.0
      z: 0.70392208136
      w: 0.710277201784
  covariance: [0.00807516442040157, 0.002090260815239775, 0.0, 0.0, 0.0, 0.0, 0.002090260815239775, 0.011880412865050594, 0.0, 0.0, 0.0, 0.0, 0.0, 0.0, 0.0, 0.0, 0.0, 0.0, 0.0, 0.0, 0.0, 0.0, 0.0, 0.0, 0.0, 0.0, 0.0, 0.0, 0.0, 0.0, 0.0, 0.0, 0.0, 0.0, 0.0, 0.004957401235725233]
---
header: 
  seq: 16
  stamp: 
    secs: 1554453018
    nsecs: 227172214
  frame_id: "map"
pose: 
  pose: 
    position: 
      x: 2.37486367669
      y: -0.524162428042
      z: 0.0
    orientation: 
      x: 0.0
      y: 0.0
      z: 0.77281043408
      w: 0.634636930045
  covariance: [0.007301077284540547, 0.0017108896870354773, 0.0, 0.0, 0.0, 0.0, 0.0017108896870354773, 0.01109736221883828, 0.0, 0.0, 0.0, 0.0, 0.0, 0.0, 0.0, 0.0, 0.0, 0.0, 0.0, 0.0, 0.0, 0.0, 0.0, 0.0, 0.0, 0.0, 0.0, 0.0, 0.0, 0.0, 0.0, 0.0, 0.0, 0.0, 0.0, 0.00449952025219431]
---
header: 
  seq: 17
  stamp: 
    secs: 1554453018
    nsecs: 629731064
  frame_id: "map"
pose: 
  pose: 
    position: 
      x: 2.37669094451
      y: -0.525463203276
      z: 0.0
    orientation: 
      x: 0.0
      y: 0.0
      z: 0.663086564215
      w: 0.748542723134
  covariance: [0.005969292998395659, 0.0018437365906474046, 0.0, 0.0, 0.0, 0.0, 0.0018437365906474046, 0.010460062500529888, 0.0, 0.0, 0.0, 0.0, 0.0, 0.0, 0.0, 0.0, 0.0, 0.0, 0.0, 0.0, 0.0, 0.0, 0.0, 0.0, 0.0, 0.0, 0.0, 0.0, 0.0, 0.0, 0.0, 0.0, 0.0, 0.0, 0.0, 0.004012787985737307]
---
header: 
  seq: 18
  stamp: 
    secs: 1554453018
    nsecs: 829753026
  frame_id: "map"
pose: 
  pose: 
    position: 
      x: 2.38559427847
      y: -0.517581729692
      z: 0.0
    orientation: 
      x: 0.0
      y: 0.0
      z: 0.555363841863
      w: 0.831607481418
  covariance: [0.004618303215562669, 0.001535293482748612, 0.0, 0.0, 0.0, 0.0, 0.001535293482748612, 0.00914618669914613, 0.0, 0.0, 0.0, 0.0, 0.0, 0.0, 0.0, 0.0, 0.0, 0.0, 0.0, 0.0, 0.0, 0.0, 0.0, 0.0, 0.0, 0.0, 0.0, 0.0, 0.0, 0.0, 0.0, 0.0, 0.0, 0.0, 0.0, 0.004138885205469937]
---
header: 
  seq: 19
  stamp: 
    secs: 1554453019
    nsecs:  31036175
  frame_id: "map"
pose: 
  pose: 
    position: 
      x: 2.38777486718
      y: -0.512368215328
      z: 0.0
    orientation: 
      x: 0.0
      y: 0.0
      z: 0.441832119662
      w: 0.897097752776
  covariance: [0.004632879668475809, 0.0012349621369944774, 0.0, 0.0, 0.0, 0.0, 0.0012349621369944774, 0.0079665785465583, 0.0, 0.0, 0.0, 0.0, 0.0, 0.0, 0.0, 0.0, 0.0, 0.0, 0.0, 0.0, 0.0, 0.0, 0.0, 0.0, 0.0, 0.0, 0.0, 0.0, 0.0, 0.0, 0.0, 0.0, 0.0, 0.0, 0.0, 0.003925188143042288]
---
header: 
  seq: 20
  stamp: 
    secs: 1554453019
    nsecs: 231065845
  frame_id: "map"
pose: 
  pose: 
    position: 
      x: 2.3733592622
      y: -0.525097932718
      z: 0.0
    orientation: 
      x: 0.0
      y: 0.0
      z: 0.302322120481
      w: 0.953205820098
  covariance: [0.0050882881011320436, 0.0009893282675159654, 0.0, 0.0, 0.0, 0.0, 0.0009893282675159654, 0.0074363108591779525, 0.0, 0.0, 0.0, 0.0, 0.0, 0.0, 0.0, 0.0, 0.0, 0.0, 0.0, 0.0, 0.0, 0.0, 0.0, 0.0, 0.0, 0.0, 0.0, 0.0, 0.0, 0.0, 0.0, 0.0, 0.0, 0.0, 0.0, 0.003574324756259543]
---
header: 
  seq: 21
  stamp: 
    secs: 1554453019
    nsecs: 431080359
  frame_id: "map"
pose: 
  pose: 
    position: 
      x: 2.36635764776
      y: -0.530294845005
      z: 0.0
    orientation: 
      x: 0.0
      y: 0.0
      z: 0.149138737909
      w: 0.988816280638
  covariance: [0.004328806417302822, 0.0011041773055600057, 0.0, 0.0, 0.0, 0.0, 0.0011041773055600057, 0.006818806967772817, 0.0, 0.0, 0.0, 0.0, 0.0, 0.0, 0.0, 0.0, 0.0, 0.0, 0.0, 0.0, 0.0, 0.0, 0.0, 0.0, 0.0, 0.0, 0.0, 0.0, 0.0, 0.0, 0.0, 0.0, 0.0, 0.0, 0.0, 0.003397084319484911]
---
header: 
  seq: 22
  stamp: 
    secs: 1554453019
    nsecs: 632376112
  frame_id: "map"
pose: 
  pose: 
    position: 
      x: 2.37102505036
      y: -0.527245281959
      z: 0.0
    orientation: 
      x: 0.0
      y: 0.0
      z: 0.00386420177589
      w: 0.999992533944
  covariance: [0.0038579668696669955, 0.0007750388423999333, 0.0, 0.0, 0.0, 0.0, 0.0007750388424001553, 0.006314073614001603, 0.0, 0.0, 0.0, 0.0, 0.0, 0.0, 0.0, 0.0, 0.0, 0.0, 0.0, 0.0, 0.0, 0.0, 0.0, 0.0, 0.0, 0.0, 0.0, 0.0, 0.0, 0.0, 0.0, 0.0, 0.0, 0.0, 0.0, 0.0035978303361451874]
---
header: 
  seq: 23
  stamp: 
    secs: 1554453020
    nsecs: 433692542
  frame_id: "map"
pose: 
  pose: 
    position: 
      x: 2.37281309325
      y: -0.530453319992
      z: 0.0
    orientation: 
      x: 0.0
      y: 0.0
      z: 0.133865697879
      w: 0.990999482811
  covariance: [0.0034152614564888495, 0.0006579670332582666, 0.0, 0.0, 0.0, 0.0, 0.0006579670332580445, 0.006374553007026662, 0.0, 0.0, 0.0, 0.0, 0.0, 0.0, 0.0, 0.0, 0.0, 0.0, 0.0, 0.0, 0.0, 0.0, 0.0, 0.0, 0.0, 0.0, 0.0, 0.0, 0.0, 0.0, 0.0, 0.0, 0.0, 0.0, 0.0, 0.0033013202749840945]
---
header: 
  seq: 24
  stamp: 
    secs: 1554453020
    nsecs: 835062860
  frame_id: "map"
pose: 
  pose: 
    position: 
      x: 2.36901298557
      y: -0.532098797863
      z: 0.0
    orientation: 
      x: 0.0
      y: 0.0
      z: 0.253356900461
      w: 0.96737287588
  covariance: [0.0035263939019394286, 0.0007389965868609405, 0.0, 0.0, 0.0, 0.0, 0.0007389965868609405, 0.006450212687026835, 0.0, 0.0, 0.0, 0.0, 0.0, 0.0, 0.0, 0.0, 0.0, 0.0, 0.0, 0.0, 0.0, 0.0, 0.0, 0.0, 0.0, 0.0, 0.0, 0.0, 0.0, 0.0, 0.0, 0.0, 0.0, 0.0, 0.0, 0.002929646791406065]
---
header: 
  seq: 25
  stamp: 
    secs: 1554453021
    nsecs: 638844998
  frame_id: "map"
pose: 
  pose: 
    position: 
      x: 2.37109024942
      y: -0.527467941202
      z: 0.0
    orientation: 
      x: 0.0
      y: 0.0
      z: 0.115129336106
      w: 0.993350510126
  covariance: [0.002952197597565487, 0.0008698793840193897, 0.0, 0.0, 0.0, 0.0, 0.0008698793840193897, 0.005513485866724621, 0.0, 0.0, 0.0, 0.0, 0.0, 0.0, 0.0, 0.0, 0.0, 0.0, 0.0, 0.0, 0.0, 0.0, 0.0, 0.0, 0.0, 0.0, 0.0, 0.0, 0.0, 0.0, 0.0, 0.0, 0.0, 0.0, 0.0, 0.002743760664194568]
---
header: 
  seq: 26
  stamp: 
    secs: 1554453022
    nsecs:  38917203
  frame_id: "map"
pose: 
  pose: 
    position: 
      x: 2.36763022047
      y: -0.524136304813
      z: 0.0
    orientation: 
      x: 0.0
      y: 0.0
      z: -0.0305214668209
      w: 0.999534111506
  covariance: [0.0033166410769513988, 0.0008231474748299217, 0.0, 0.0, 0.0, 0.0, 0.0008231474748301437, 0.004880116492219089, 0.0, 0.0, 0.0, 0.0, 0.0, 0.0, 0.0, 0.0, 0.0, 0.0, 0.0, 0.0, 0.0, 0.0, 0.0, 0.0, 0.0, 0.0, 0.0, 0.0, 0.0, 0.0, 0.0, 0.0, 0.0, 0.0, 0.0, 0.0026966897565096305]
---
header: 
  seq: 27
  stamp: 
    secs: 1554453038
    nsecs: 492194342
  frame_id: "map"
pose: 
  pose: 
    position: 
      x: 2.60775993972
      y: -0.544110721492
      z: 0.0
    orientation: 
      x: 0.0
      y: 0.0
      z: -0.035056743036
      w: 0.99938532347
  covariance: [0.0024955441687302127, 0.0008706870380275067, 0.0, 0.0, 0.0, 0.0, 0.0008706870380275067, 0.005692120293050551, 0.0, 0.0, 0.0, 0.0, 0.0, 0.0, 0.0, 0.0, 0.0, 0.0, 0.0, 0.0, 0.0, 0.0, 0.0, 0.0, 0.0, 0.0, 0.0, 0.0, 0.0, 0.0, 0.0, 0.0, 0.0, 0.0, 0.0, 0.0026640077938055026]
---
header: 
  seq: 28
  stamp: 
    secs: 1554453039
    nsecs: 697359506
  frame_id: "map"
pose: 
  pose: 
    position: 
      x: 2.83146431302
      y: -0.563539276693
      z: 0.0
    orientation: 
      x: 0.0
      y: 0.0
      z: -0.0699415155977
      w: 0.997551093627
  covariance: [0.002629014240127958, 0.0010106118197201752, 0.0, 0.0, 0.0, 0.0, 0.0010106118197201752, 0.0061435401329515416, 0.0, 0.0, 0.0, 0.0, 0.0, 0.0, 0.0, 0.0, 0.0, 0.0, 0.0, 0.0, 0.0, 0.0, 0.0, 0.0, 0.0, 0.0, 0.0, 0.0, 0.0, 0.0, 0.0, 0.0, 0.0, 0.0, 0.0, 0.002469888612321602]
---
header: 
  seq: 29
  stamp: 
    secs: 1554453040
    nsecs: 901264213
  frame_id: "map"
pose: 
  pose: 
    position: 
      x: 3.06371351576
      y: -0.597051421491
      z: 0.0
    orientation: 
      x: 0.0
      y: 0.0
      z: -0.0648375516477
      w: 0.997895832187
  covariance: [0.0028541290617116744, 0.0014137234770319473, 0.0, 0.0, 0.0, 0.0, 0.0014137234770321694, 0.006877537039730819, 0.0, 0.0, 0.0, 0.0, 0.0, 0.0, 0.0, 0.0, 0.0, 0.0, 0.0, 0.0, 0.0, 0.0, 0.0, 0.0, 0.0, 0.0, 0.0, 0.0, 0.0, 0.0, 0.0, 0.0, 0.0, 0.0, 0.0, 0.0022778377547923194]
---
header: 
  seq: 30
  stamp: 
    secs: 1554453042
    nsecs: 106430211
  frame_id: "map"
pose: 
  pose: 
    position: 
      x: 3.29717827815
      y: -0.627026071903
      z: 0.0
    orientation: 
      x: 0.0
      y: 0.0
      z: -0.0351266193659
      w: 0.999382869881
  covariance: [0.003193868943069944, 0.0018311459251703077, 0.0, 0.0, 0.0, 0.0, 0.0018311459251698636, 0.008096307038972683, 0.0, 0.0, 0.0, 0.0, 0.0, 0.0, 0.0, 0.0, 0.0, 0.0, 0.0, 0.0, 0.0, 0.0, 0.0, 0.0, 0.0, 0.0, 0.0, 0.0, 0.0, 0.0, 0.0, 0.0, 0.0, 0.0, 0.0, 0.002236143126154966]
---
header: 
  seq: 31
  stamp: 
    secs: 1554453043
    nsecs: 310302262
  frame_id: "map"
pose: 
  pose: 
    position: 
      x: 3.52858107373
      y: -0.654112810229
      z: 0.0
    orientation: 
      x: 0.0
      y: 0.0
      z: -0.054802407503
      w: 0.99849721889
  covariance: [0.0029976019248181274, 0.0015459130035457846, 0.0, 0.0, 0.0, 0.0, 0.0015459130035457846, 0.008449502323601255, 0.0, 0.0, 0.0, 0.0, 0.0, 0.0, 0.0, 0.0, 0.0, 0.0, 0.0, 0.0, 0.0, 0.0, 0.0, 0.0, 0.0, 0.0, 0.0, 0.0, 0.0, 0.0, 0.0, 0.0, 0.0, 0.0, 0.0, 0.0022313478935024086]
---
header: 
  seq: 32
  stamp: 
    secs: 1554453044
    nsecs: 514210458
  frame_id: "map"
pose: 
  pose: 
    position: 
      x: 3.7558401021
      y: -0.685031214215
      z: 0.0
    orientation: 
      x: 0.0
      y: 0.0
      z: -0.0886909150279
      w: 0.996059195827
  covariance: [0.002680947608544315, 0.0013359066998801516, 0.0, 0.0, 0.0, 0.0, 0.0013359066998801516, 0.008043385009044335, 0.0, 0.0, 0.0, 0.0, 0.0, 0.0, 0.0, 0.0, 0.0, 0.0, 0.0, 0.0, 0.0, 0.0, 0.0, 0.0, 0.0, 0.0, 0.0, 0.0, 0.0, 0.0, 0.0, 0.0, 0.0, 0.0, 0.0, 0.0020351748311638273]
---
header: 
  seq: 33
  stamp: 
    secs: 1554453045
    nsecs: 719353279
  frame_id: "map"
pose: 
  pose: 
    position: 
      x: 3.97340190188
      y: -0.735617632076
      z: 0.0
    orientation: 
      x: 0.0
      y: 0.0
      z: -0.143856456349
      w: 0.989598565059
  covariance: [0.002431614738105381, 0.0014236862481737944, 0.0, 0.0, 0.0, 0.0, 0.0014236862481737944, 0.008710805311542225, 0.0, 0.0, 0.0, 0.0, 0.0, 0.0, 0.0, 0.0, 0.0, 0.0, 0.0, 0.0, 0.0, 0.0, 0.0, 0.0, 0.0, 0.0, 0.0, 0.0, 0.0, 0.0, 0.0, 0.0, 0.0, 0.0, 0.0, 0.0019659771406908243]
---
header: 
  seq: 34
  stamp: 
    secs: 1554453046
    nsecs: 721989993
  frame_id: "map"
pose: 
  pose: 
    position: 
      x: 4.13134269214
      y: -0.810429038431
      z: 0.0
    orientation: 
      x: 0.0
      y: 0.0
      z: -0.247740071654
      w: 0.96882653602
  covariance: [0.0023702839064370096, 0.0015233963502332415, 0.0, 0.0, 0.0, 0.0, 0.0015233963502332415, 0.009450380963335947, 0.0, 0.0, 0.0, 0.0, 0.0, 0.0, 0.0, 0.0, 0.0, 0.0, 0.0, 0.0, 0.0, 0.0, 0.0, 0.0, 0.0, 0.0, 0.0, 0.0, 0.0, 0.0, 0.0, 0.0, 0.0, 0.0, 0.0, 0.0021422077443570137]
---
header: 
  seq: 35
  stamp: 
    secs: 1554453047
    nsecs: 725857270
  frame_id: "map"
pose: 
  pose: 
    position: 
      x: 4.26949161047
      y: -0.907597638456
      z: 0.0
    orientation: 
      x: 0.0
      y: 0.0
      z: -0.386650208121
      w: 0.922226445381
  covariance: [0.0022485032667027838, 0.0014801703969449242, 0.0, 0.0, 0.0, 0.0, 0.0014801703969453683, 0.008241052803036442, 0.0, 0.0, 0.0, 0.0, 0.0, 0.0, 0.0, 0.0, 0.0, 0.0, 0.0, 0.0, 0.0, 0.0, 0.0, 0.0, 0.0, 0.0, 0.0, 0.0, 0.0, 0.0, 0.0, 0.0, 0.0, 0.0, 0.0, 0.0018390767982484062]
---
header: 
  seq: 36
  stamp: 
    secs: 1554453048
    nsecs: 327163665
  frame_id: "map"
pose: 
  pose: 
    position: 
      x: 4.31100611701
      y: -0.968478369623
      z: 0.0
    orientation: 
      x: 0.0
      y: 0.0
      z: -0.499272763748
      w: 0.866444866901
  covariance: [0.002308168221809126, 0.001621916180774896, 0.0, 0.0, 0.0, 0.0, 0.0016219161807731197, 0.008477751467272476, 0.0, 0.0, 0.0, 0.0, 0.0, 0.0, 0.0, 0.0, 0.0, 0.0, 0.0, 0.0, 0.0, 0.0, 0.0, 0.0, 0.0, 0.0, 0.0, 0.0, 0.0, 0.0, 0.0, 0.0, 0.0, 0.0, 0.0, 0.0019050324611384391]
---
header: 
  seq: 37
  stamp: 
    secs: 1554453048
    nsecs: 928518081
  frame_id: "map"
pose: 
  pose: 
    position: 
      x: 4.32180216911
      y: -0.986681440788
      z: 0.0
    orientation: 
      x: 0.0
      y: 0.0
      z: -0.395200933733
      w: 0.918594699515
  covariance: [0.0021947177238423876, 0.0017705123063418426, 0.0, 0.0, 0.0, 0.0, 0.0017705123063418426, 0.009245664298821121, 0.0, 0.0, 0.0, 0.0, 0.0, 0.0, 0.0, 0.0, 0.0, 0.0, 0.0, 0.0, 0.0, 0.0, 0.0, 0.0, 0.0, 0.0, 0.0, 0.0, 0.0, 0.0, 0.0, 0.0, 0.0, 0.0, 0.0, 0.0021709124329005176]
---
header: 
  seq: 38
  stamp: 
    secs: 1554453049
    nsecs: 129775241
  frame_id: "map"
pose: 
  pose: 
    position: 
      x: 4.31732437324
      y: -0.985047593697
      z: 0.0
    orientation: 
      x: 0.0
      y: 0.0
      z: -0.269586859046
      w: 0.962976077288
  covariance: [0.0021947995442381796, 0.0018039479328919583, 0.0, 0.0, 0.0, 0.0, 0.0018039479328919583, 0.009785317738965738, 0.0, 0.0, 0.0, 0.0, 0.0, 0.0, 0.0, 0.0, 0.0, 0.0, 0.0, 0.0, 0.0, 0.0, 0.0, 0.0, 0.0, 0.0, 0.0, 0.0, 0.0, 0.0, 0.0, 0.0, 0.0, 0.0, 0.0, 0.0023204612086338825]
---
header: 
  seq: 39
  stamp: 
    secs: 1554453049
    nsecs: 329807879
  frame_id: "map"
pose: 
  pose: 
    position: 
      x: 4.31234558701
      y: -0.995284772779
      z: 0.0
    orientation: 
      x: 0.0
      y: 0.0
      z: -0.141326191997
      w: 0.989963083885
  covariance: [0.0023720317169235727, 0.001990599450687469, 0.0, 0.0, 0.0, 0.0, 0.0019905994506883573, 0.009973517052285108, 0.0, 0.0, 0.0, 0.0, 0.0, 0.0, 0.0, 0.0, 0.0, 0.0, 0.0, 0.0, 0.0, 0.0, 0.0, 0.0, 0.0, 0.0, 0.0, 0.0, 0.0, 0.0, 0.0, 0.0, 0.0, 0.0, 0.0, 0.0022177528752303863]
---
header: 
  seq: 40
  stamp: 
    secs: 1554453049
    nsecs: 531072903
  frame_id: "map"
pose: 
  pose: 
    position: 
      x: 4.3086345891
      y: -0.997931887711
      z: 0.0
    orientation: 
      x: 0.0
      y: 0.0
      z: -0.0098608072082
      w: 0.999951381059
  covariance: [0.002427477233254649, 0.0019262468960477008, 0.0, 0.0, 0.0, 0.0, 0.001926246896048589, 0.008155521854862013, 0.0, 0.0, 0.0, 0.0, 0.0, 0.0, 0.0, 0.0, 0.0, 0.0, 0.0, 0.0, 0.0, 0.0, 0.0, 0.0, 0.0, 0.0, 0.0, 0.0, 0.0, 0.0, 0.0, 0.0, 0.0, 0.0, 0.0, 0.002021521776551112]
---
header: 
  seq: 41
  stamp: 
    secs: 1554453065
    nsecs: 383281746
  frame_id: "map"
pose: 
  pose: 
    position: 
      x: 4.28259836353
      y: -1.00322186366
      z: 0.0
    orientation: 
      x: 0.0
      y: 0.0
      z: 0.0966558551492
      w: 0.995317861623
  covariance: [0.0022851494127600347, 0.0019992915075546236, 0.0, 0.0, 0.0, 0.0, 0.0019992915075537354, 0.008099522452362784, 0.0, 0.0, 0.0, 0.0, 0.0, 0.0, 0.0, 0.0, 0.0, 0.0, 0.0, 0.0, 0.0, 0.0, 0.0, 0.0, 0.0, 0.0, 0.0, 0.0, 0.0, 0.0, 0.0, 0.0, 0.0, 0.0, 0.0, 0.0020144324940169185]
---
header: 
  seq: 42
  stamp: 
    secs: 1554453065
    nsecs: 784578589
  frame_id: "map"
pose: 
  pose: 
    position: 
      x: 4.33549329285
      y: -0.98888243075
      z: 0.0
    orientation: 
      x: 0.0
      y: 0.0
      z: 0.195079393401
      w: 0.980787454177
  covariance: [0.002092491337190694, 0.0020166226578206548, 0.0, 0.0, 0.0, 0.0, 0.0020166226578206548, 0.008530285330372256, 0.0, 0.0, 0.0, 0.0, 0.0, 0.0, 0.0, 0.0, 0.0, 0.0, 0.0, 0.0, 0.0, 0.0, 0.0, 0.0, 0.0, 0.0, 0.0, 0.0, 0.0, 0.0, 0.0, 0.0, 0.0, 0.0, 0.0, 0.0018499897158246947]
---
header: 
  seq: 43
  stamp: 
    secs: 1554453066
    nsecs: 185886681
  frame_id: "map"
pose: 
  pose: 
    position: 
      x: 4.39428389729
      y: -0.954866703266
      z: 0.0
    orientation: 
      x: 0.0
      y: 0.0
      z: 0.297848451025
      w: 0.954613167845
  covariance: [0.001796514206986899, 0.0015661292805422278, 0.0, 0.0, 0.0, 0.0, 0.0015661292805413396, 0.008220872859413197, 0.0, 0.0, 0.0, 0.0, 0.0, 0.0, 0.0, 0.0, 0.0, 0.0, 0.0, 0.0, 0.0, 0.0, 0.0, 0.0, 0.0, 0.0, 0.0, 0.0, 0.0, 0.0, 0.0, 0.0, 0.0, 0.0, 0.0, 0.001777052528395941]
---
header: 
  seq: 44
  stamp: 
    secs: 1554453067
    nsecs: 392311944
  frame_id: "map"
pose: 
  pose: 
    position: 
      x: 4.56027562792
      y: -0.806261369303
      z: 0.0
    orientation: 
      x: 0.0
      y: 0.0
      z: 0.40556289575
      w: 0.914067140636
  covariance: [0.001710018237101707, 0.0012229628728657183, 0.0, 0.0, 0.0, 0.0, 0.0012229628728657183, 0.0075912795225644425, 0.0, 0.0, 0.0, 0.0, 0.0, 0.0, 0.0, 0.0, 0.0, 0.0, 0.0, 0.0, 0.0, 0.0, 0.0, 0.0, 0.0, 0.0, 0.0, 0.0, 0.0, 0.0, 0.0, 0.0, 0.0, 0.0, 0.0, 0.0016234539357388236]
---
header: 
  seq: 45
  stamp: 
    secs: 1554453068
    nsecs: 596202940
  frame_id: "map"
pose: 
  pose: 
    position: 
      x: 4.69279639864
      y: -0.62180887309
      z: 0.0
    orientation: 
      x: 0.0
      y: 0.0
      z: 0.496696881976
      w: 0.867924079304
  covariance: [0.0016468550311792285, 0.0009868504314054505, 0.0, 0.0, 0.0, 0.0, 0.0009868504314058946, 0.008389448870955218, 0.0, 0.0, 0.0, 0.0, 0.0, 0.0, 0.0, 0.0, 0.0, 0.0, 0.0, 0.0, 0.0, 0.0, 0.0, 0.0, 0.0, 0.0, 0.0, 0.0, 0.0, 0.0, 0.0, 0.0, 0.0, 0.0, 0.0, 0.0015352767939355312]
---
header: 
  seq: 46
  stamp: 
    secs: 1554453069
    nsecs: 801367736
  frame_id: "map"
pose: 
  pose: 
    position: 
      x: 4.79535328221
      y: -0.424357250158
      z: 0.0
    orientation: 
      x: 0.0
      y: 0.0
      z: 0.548129839143
      w: 0.836393256453
  covariance: [0.0018432061984263726, 0.0006051177324239987, 0.0, 0.0, 0.0, 0.0, 0.0006051177324239987, 0.008556494638795098, 0.0, 0.0, 0.0, 0.0, 0.0, 0.0, 0.0, 0.0, 0.0, 0.0, 0.0, 0.0, 0.0, 0.0, 0.0, 0.0, 0.0, 0.0, 0.0, 0.0, 0.0, 0.0, 0.0, 0.0, 0.0, 0.0, 0.0, 0.0016511033712123915]
---
header: 
  seq: 47
  stamp: 
    secs: 1554453071
    nsecs:   5155867
  frame_id: "map"
pose: 
  pose: 
    position: 
      x: 4.88131920238
      y: -0.21214509164
      z: 0.0
    orientation: 
      x: 0.0
      y: 0.0
      z: 0.575524498307
      w: 0.817784538768
  covariance: [0.002094992374541249, 7.797958293309648e-05, 0.0, 0.0, 0.0, 0.0, 7.797958293309648e-05, 0.008403346736345116, 0.0, 0.0, 0.0, 0.0, 0.0, 0.0, 0.0, 0.0, 0.0, 0.0, 0.0, 0.0, 0.0, 0.0, 0.0, 0.0, 0.0, 0.0, 0.0, 0.0, 0.0, 0.0, 0.0, 0.0, 0.0, 0.0, 0.0, 0.0016882590378574465]
---
header: 
  seq: 48
  stamp: 
    secs: 1554453072
    nsecs: 209047071
  frame_id: "map"
pose: 
  pose: 
    position: 
      x: 4.94545721092
      y: 0.00509379595157
      z: 0.0
    orientation: 
      x: 0.0
      y: 0.0
      z: 0.618123691746
      w: 0.786080849342
  covariance: [0.0026712837260589595, -0.0005949926617371815, 0.0, 0.0, 0.0, 0.0, -0.0005949926617371745, 0.008332034343413938, 0.0, 0.0, 0.0, 0.0, 0.0, 0.0, 0.0, 0.0, 0.0, 0.0, 0.0, 0.0, 0.0, 0.0, 0.0, 0.0, 0.0, 0.0, 0.0, 0.0, 0.0, 0.0, 0.0, 0.0, 0.0, 0.0, 0.0, 0.0016823003102292117]
---
header: 
  seq: 49
  stamp: 
    secs: 1554453073
    nsecs: 412965202
  frame_id: "map"
pose: 
  pose: 
    position: 
      x: 4.99719376059
      y: 0.228992582197
      z: 0.0
    orientation: 
      x: 0.0
      y: 0.0
      z: 0.6366358238
      w: 0.771164591935
  covariance: [0.0035718546252425654, -0.0013965958241821674, 0.0, 0.0, 0.0, 0.0, -0.0013965958241821674, 0.008810725036582638, 0.0, 0.0, 0.0, 0.0, 0.0, 0.0, 0.0, 0.0, 0.0, 0.0, 0.0, 0.0, 0.0, 0.0, 0.0, 0.0, 0.0, 0.0, 0.0, 0.0, 0.0, 0.0, 0.0, 0.0, 0.0, 0.0, 0.0, 0.0018876899658742164]
---
header: 
  seq: 50
  stamp: 
    secs: 1554453074
    nsecs: 616869166
  frame_id: "map"
pose: 
  pose: 
    position: 
      x: 5.03184810655
      y: 0.460285840969
      z: 0.0
    orientation: 
      x: 0.0
      y: 0.0
      z: 0.658294943884
      w: 0.752760099139
  covariance: [0.004519138678496404, -0.0014927115056373452, 0.0, 0.0, 0.0, 0.0, -0.0014927115056373452, 0.008507360976308664, 0.0, 0.0, 0.0, 0.0, 0.0, 0.0, 0.0, 0.0, 0.0, 0.0, 0.0, 0.0, 0.0, 0.0, 0.0, 0.0, 0.0, 0.0, 0.0, 0.0, 0.0, 0.0, 0.0, 0.0, 0.0, 0.0, 0.0, 0.0018373664251363788]
---
header: 
  seq: 51
  stamp: 
    secs: 1554453076
    nsecs:  21942592
  frame_id: "map"
pose: 
  pose: 
    position: 
      x: 5.06475572426
      y: 0.729684915411
      z: 0.0
    orientation: 
      x: 0.0
      y: 0.0
      z: 0.684081523443
      w: 0.729405558852
  covariance: [0.006041999416424915, -0.0021885543321986667, 0.0, 0.0, 0.0, 0.0, -0.0021885543321986667, 0.008764133515145933, 0.0, 0.0, 0.0, 0.0, 0.0, 0.0, 0.0, 0.0, 0.0, 0.0, 0.0, 0.0, 0.0, 0.0, 0.0, 0.0, 0.0, 0.0, 0.0, 0.0, 0.0, 0.0, 0.0, 0.0, 0.0, 0.0, 0.0, 0.0020874285135207104]
---
header: 
  seq: 52
  stamp: 
    secs: 1554453077
    nsecs: 225855255
  frame_id: "map"
pose: 
  pose: 
    position: 
      x: 5.06815508487
      y: 0.976061149709
      z: 0.0
    orientation: 
      x: 0.0
      y: 0.0
      z: 0.703497018511
      w: 0.710698209472
  covariance: [0.007284323056733655, -0.001579345313776237, 0.0, 0.0, 0.0, 0.0, -0.0015793453137753488, 0.0070931715997815115, 0.0, 0.0, 0.0, 0.0, 0.0, 0.0, 0.0, 0.0, 0.0, 0.0, 0.0, 0.0, 0.0, 0.0, 0.0, 0.0, 0.0, 0.0, 0.0, 0.0, 0.0, 0.0, 0.0, 0.0, 0.0, 0.0, 0.0, 0.0018656673568703177]
---
header: 
  seq: 53
  stamp: 
    secs: 1554453078
    nsecs: 429768698
  frame_id: "map"
pose: 
  pose: 
    position: 
      x: 5.0573419782
      y: 1.20988565167
      z: 0.0
    orientation: 
      x: 0.0
      y: 0.0
      z: 0.710428628221
      w: 0.703769254943
  covariance: [0.008877598416848542, -0.0017108168447803607, 0.0, 0.0, 0.0, 0.0, -0.0017108168447794725, 0.006912542015175438, 0.0, 0.0, 0.0, 0.0, 0.0, 0.0, 0.0, 0.0, 0.0, 0.0, 0.0, 0.0, 0.0, 0.0, 0.0, 0.0, 0.0, 0.0, 0.0, 0.0, 0.0, 0.0, 0.0, 0.0, 0.0, 0.0, 0.0, 0.001896782517423545]
---
header: 
  seq: 54
  stamp: 
    secs: 1554453079
    nsecs: 633679433
  frame_id: "map"
pose: 
  pose: 
    position: 
      x: 5.03937592356
      y: 1.44453306075
      z: 0.0
    orientation: 
      x: 0.0
      y: 0.0
      z: 0.703564308043
      w: 0.710631595447
  covariance: [0.010118145212871354, -0.00101010047147998, 0.0, 0.0, 0.0, 0.0, -0.00101010047147998, 0.006522177761806525, 0.0, 0.0, 0.0, 0.0, 0.0, 0.0, 0.0, 0.0, 0.0, 0.0, 0.0, 0.0, 0.0, 0.0, 0.0, 0.0, 0.0, 0.0, 0.0, 0.0, 0.0, 0.0, 0.0, 0.0, 0.0, 0.0, 0.0, 0.0018576769322155393]
---
header: 
  seq: 55
  stamp: 
    secs: 1554453080
    nsecs: 837470950
  frame_id: "map"
pose: 
  pose: 
    position: 
      x: 5.04461017023
      y: 1.66664864548
      z: 0.0
    orientation: 
      x: 0.0
      y: 0.0
      z: 0.689333422877
      w: 0.724444222908
  covariance: [0.011616786263967782, -0.0017119987684495186, 0.0, 0.0, 0.0, 0.0, -0.0017119987684495186, 0.00703107350848331, 0.0, 0.0, 0.0, 0.0, 0.0, 0.0, 0.0, 0.0, 0.0, 0.0, 0.0, 0.0, 0.0, 0.0, 0.0, 0.0, 0.0, 0.0, 0.0, 0.0, 0.0, 0.0, 0.0, 0.0, 0.0, 0.0, 0.0, 0.002019052369084605]
---
header: 
  seq: 56
  stamp: 
    secs: 1554453082
    nsecs:  41349550
  frame_id: "map"
pose: 
  pose: 
    position: 
      x: 5.0737774845
      y: 1.87775465211
      z: 0.0
    orientation: 
      x: 0.0
      y: 0.0
      z: 0.634924150106
      w: 0.772574477712
  covariance: [0.01384497626780501, -0.0015107376163321362, 0.0, 0.0, 0.0, 0.0, -0.0015107376163321362, 0.00634694238367306, 0.0, 0.0, 0.0, 0.0, 0.0, 0.0, 0.0, 0.0, 0.0, 0.0, 0.0, 0.0, 0.0, 0.0, 0.0, 0.0, 0.0, 0.0, 0.0, 0.0, 0.0, 0.0, 0.0, 0.0, 0.0, 0.0, 0.0, 0.0020567105690609037]
---
header: 
  seq: 57
  stamp: 
    secs: 1554453083
    nsecs: 246510439
  frame_id: "map"
pose: 
  pose: 
    position: 
      x: 5.12440952311
      y: 2.07524748117
      z: 0.0
    orientation: 
      x: 0.0
      y: 0.0
      z: 0.523262677353
      w: 0.852171444305
  covariance: [0.01529195644328496, -0.0015710053239050836, 0.0, 0.0, 0.0, 0.0, -0.00157100532390686, 0.0062302311457340664, 0.0, 0.0, 0.0, 0.0, 0.0, 0.0, 0.0, 0.0, 0.0, 0.0, 0.0, 0.0, 0.0, 0.0, 0.0, 0.0, 0.0, 0.0, 0.0, 0.0, 0.0, 0.0, 0.0, 0.0, 0.0, 0.0, 0.0, 0.0020309696079723193]
---
header: 
  seq: 58
  stamp: 
    secs: 1554453083
    nsecs: 850332731
  frame_id: "map"
pose: 
  pose: 
    position: 
      x: 5.16460592801
      y: 2.13351518396
      z: 0.0
    orientation: 
      x: 0.0
      y: 0.0
      z: 0.410890628434
      w: 0.911684644746
  covariance: [0.01606342854055498, -0.0008675370595092602, 0.0, 0.0, 0.0, 0.0, -0.0008675370595092602, 0.006099593906868428, 0.0, 0.0, 0.0, 0.0, 0.0, 0.0, 0.0, 0.0, 0.0, 0.0, 0.0, 0.0, 0.0, 0.0, 0.0, 0.0, 0.0, 0.0, 0.0, 0.0, 0.0, 0.0, 0.0, 0.0, 0.0, 0.0, 0.0, 0.002104664395647931]
---
header: 
  seq: 59
  stamp: 
    secs: 1554453084
    nsecs: 650194545
  frame_id: "map"
pose: 
  pose: 
    position: 
      x: 5.22128782186
      y: 2.18296199013
      z: 0.0
    orientation: 
      x: 0.0
      y: 0.0
      z: 0.308130372607
      w: 0.951344140402
  covariance: [0.015648871328160396, -0.0018330882358785772, 0.0, 0.0, 0.0, 0.0, -0.0018330882358803535, 0.0064561088920882526, 0.0, 0.0, 0.0, 0.0, 0.0, 0.0, 0.0, 0.0, 0.0, 0.0, 0.0, 0.0, 0.0, 0.0, 0.0, 0.0, 0.0, 0.0, 0.0, 0.0, 0.0, 0.0, 0.0, 0.0, 0.0, 0.0, 0.0, 0.001989628092554067]
---
header: 
  seq: 60
  stamp: 
    secs: 1554453085
    nsecs:  52756229
  frame_id: "map"
pose: 
  pose: 
    position: 
      x: 5.22814414335
      y: 2.17478975261
      z: 0.0
    orientation: 
      x: 0.0
      y: 0.0
      z: 0.158585526955
      w: 0.987345243894
  covariance: [0.015551140641409944, -0.0016366439582178316, 0.0, 0.0, 0.0, 0.0, -0.0016366439582178316, 0.0059971729520080785, 0.0, 0.0, 0.0, 0.0, 0.0, 0.0, 0.0, 0.0, 0.0, 0.0, 0.0, 0.0, 0.0, 0.0, 0.0, 0.0, 0.0, 0.0, 0.0, 0.0, 0.0, 0.0, 0.0, 0.0, 0.0, 0.0, 0.0, 0.00202081326361856]
---
header: 
  seq: 61
  stamp: 
    secs: 1554453085
    nsecs: 252777880
  frame_id: "map"
pose: 
  pose: 
    position: 
      x: 5.23619933457
      y: 2.16934941347
      z: 0.0
    orientation: 
      x: 0.0
      y: 0.0
      z: 0.0248020958159
      w: 0.999692380707
  covariance: [0.01587817031275307, -0.0012851530679700574, 0.0, 0.0, 0.0, 0.0, -0.0012851530679700574, 0.005749049269089923, 0.0, 0.0, 0.0, 0.0, 0.0, 0.0, 0.0, 0.0, 0.0, 0.0, 0.0, 0.0, 0.0, 0.0, 0.0, 0.0, 0.0, 0.0, 0.0, 0.0, 0.0, 0.0, 0.0, 0.0, 0.0, 0.0, 0.0, 0.002084060738480615]
---
header: 
  seq: 62
  stamp: 
    secs: 1554453085
    nsecs: 654115347
  frame_id: "map"
pose: 
  pose: 
    position: 
      x: 5.24478709331
      y: 2.16684619761
      z: 0.0
    orientation: 
      x: 0.0
      y: 0.0
      z: -0.0887295628612
      w: 0.996055753798
  covariance: [0.015178811252212654, -0.0016227481652286713, 0.0, 0.0, 0.0, 0.0, -0.0016227481652286713, 0.006177464972168423, 0.0, 0.0, 0.0, 0.0, 0.0, 0.0, 0.0, 0.0, 0.0, 0.0, 0.0, 0.0, 0.0, 0.0, 0.0, 0.0, 0.0, 0.0, 0.0, 0.0, 0.0, 0.0, 0.0, 0.0, 0.0, 0.0, 0.0, 0.0020813543872445412]
---
header: 
  seq: 63
  stamp: 
    secs: 1554453086
    nsecs:  55389690
  frame_id: "map"
pose: 
  pose: 
    position: 
      x: 5.22851835392
      y: 2.16650888019
      z: 0.0
    orientation: 
      x: 0.0
      y: 0.0
      z: 0.0352514033745
      w: 0.999378476134
  covariance: [0.014637172025658174, -0.0008955092199585124, 0.0, 0.0, 0.0, 0.0, -0.0008955092199638415, 0.005256306643085296, 0.0, 0.0, 0.0, 0.0, 0.0, 0.0, 0.0, 0.0, 0.0, 0.0, 0.0, 0.0, 0.0, 0.0, 0.0, 0.0, 0.0, 0.0, 0.0, 0.0, 0.0, 0.0, 0.0, 0.0, 0.0, 0.0, 0.0, 0.0018626059420301492]
---
header: 
  seq: 64
  stamp: 
    secs: 1554453102
    nsecs: 508833192
  frame_id: "map"
pose: 
  pose: 
    position: 
      x: 4.99767443715
      y: 2.13662010139
      z: 0.0
    orientation: 
      x: 0.0
      y: 0.0
      z: 0.0435439778857
      w: 0.999051511179
  covariance: [0.014501825083133468, -0.00038032933914955436, 0.0, 0.0, 0.0, 0.0, -0.00038032933914955436, 0.005187444305478017, 0.0, 0.0, 0.0, 0.0, 0.0, 0.0, 0.0, 0.0, 0.0, 0.0, 0.0, 0.0, 0.0, 0.0, 0.0, 0.0, 0.0, 0.0, 0.0, 0.0, 0.0, 0.0, 0.0, 0.0, 0.0, 0.0, 0.0, 0.001997526977234133]
---
header: 
  seq: 65
  stamp: 
    secs: 1554453103
    nsecs: 713982207
  frame_id: "map"
pose: 
  pose: 
    position: 
      x: 4.76610449512
      y: 2.120248737
      z: 0.0
    orientation: 
      x: 0.0
      y: 0.0
      z: 0.0148711216743
      w: 0.999889418756
  covariance: [0.015442432645013326, -0.0004363366248210099, 0.0, 0.0, 0.0, 0.0, -0.0004363366248210099, 0.005556879135042436, 0.0, 0.0, 0.0, 0.0, 0.0, 0.0, 0.0, 0.0, 0.0, 0.0, 0.0, 0.0, 0.0, 0.0, 0.0, 0.0, 0.0, 0.0, 0.0, 0.0, 0.0, 0.0, 0.0, 0.0, 0.0, 0.0, 0.0, 0.0024466027238010087]
---
header: 
  seq: 66
  stamp: 
    secs: 1554453104
    nsecs: 917888411
  frame_id: "map"
pose: 
  pose: 
    position: 
      x: 4.51326548002
      y: 2.10248095778
      z: 0.0
    orientation: 
      x: 0.0
      y: 0.0
      z: 0.0402572152808
      w: 0.999189349732
  covariance: [0.014110155930982415, 0.0012061701555605708, 0.0, 0.0, 0.0, 0.0, 0.0012061701555587945, 0.004887610827608135, 0.0, 0.0, 0.0, 0.0, 0.0, 0.0, 0.0, 0.0, 0.0, 0.0, 0.0, 0.0, 0.0, 0.0, 0.0, 0.0, 0.0, 0.0, 0.0, 0.0, 0.0, 0.0, 0.0, 0.0, 0.0, 0.0, 0.0, 0.0025791794802493945]
---
header: 
  seq: 67
  stamp: 
    secs: 1554453106
    nsecs: 323063399
  frame_id: "map"
pose: 
  pose: 
    position: 
      x: 4.25041385227
      y: 2.06885758468
      z: 0.0
    orientation: 
      x: 0.0
      y: 0.0
      z: 0.191082350847
      w: 0.981574009026
  covariance: [0.011988444007645427, 0.0017444652918889858, 0.0, 0.0, 0.0, 0.0, 0.0017444652918907622, 0.0047267768861036785, 0.0, 0.0, 0.0, 0.0, 0.0, 0.0, 0.0, 0.0, 0.0, 0.0, 0.0, 0.0, 0.0, 0.0, 0.0, 0.0, 0.0, 0.0, 0.0, 0.0, 0.0, 0.0, 0.0, 0.0, 0.0, 0.0, 0.0, 0.0023091561640812765]
---
header: 
  seq: 68
  stamp: 
    secs: 1554453106
    nsecs: 724374617
  frame_id: "map"
pose: 
  pose: 
    position: 
      x: 4.22045300947
      y: 2.05582465887
      z: 0.0
    orientation: 
      x: 0.0
      y: 0.0
      z: 0.342352289888
      w: 0.939571662838
  covariance: [0.011538727232014878, 0.0010067132096214237, 0.0, 0.0, 0.0, 0.0, 0.0010067132096214237, 0.004031588037003431, 0.0, 0.0, 0.0, 0.0, 0.0, 0.0, 0.0, 0.0, 0.0, 0.0, 0.0, 0.0, 0.0, 0.0, 0.0, 0.0, 0.0, 0.0, 0.0, 0.0, 0.0, 0.0, 0.0, 0.0, 0.0, 0.0, 0.0, 0.002199578109514388]
---
header: 
  seq: 69
  stamp: 
    secs: 1554453107
    nsecs: 125677344
  frame_id: "map"
pose: 
  pose: 
    position: 
      x: 4.23302831783
      y: 2.08494543699
      z: 0.0
    orientation: 
      x: 0.0
      y: 0.0
      z: 0.510202635783
      w: 0.86005422529
  covariance: [0.010378637253598555, 0.00022289821490062423, 0.0, 0.0, 0.0, 0.0, 0.00022289821489884787, 0.002781252920676991, 0.0, 0.0, 0.0, 0.0, 0.0, 0.0, 0.0, 0.0, 0.0, 0.0, 0.0, 0.0, 0.0, 0.0, 0.0, 0.0, 0.0, 0.0, 0.0, 0.0, 0.0, 0.0, 0.0, 0.0, 0.0, 0.0, 0.0, 0.0021137908097208532]
---
header: 
  seq: 70
  stamp: 
    secs: 1554453107
    nsecs: 526962308
  frame_id: "map"
pose: 
  pose: 
    position: 
      x: 4.24030903506
      y: 2.13717039505
      z: 0.0
    orientation: 
      x: 0.0
      y: 0.0
      z: 0.640753711671
      w: 0.767746495257
  covariance: [0.009385182872211573, 0.0003821489105622078, 0.0, 0.0, 0.0, 0.0, 0.0003821489105622078, 0.0022807820662427147, 0.0, 0.0, 0.0, 0.0, 0.0, 0.0, 0.0, 0.0, 0.0, 0.0, 0.0, 0.0, 0.0, 0.0, 0.0, 0.0, 0.0, 0.0, 0.0, 0.0, 0.0, 0.0, 0.0, 0.0, 0.0, 0.0, 0.0, 0.001678517603114872]
---
header: 
  seq: 71
  stamp: 
    secs: 1554453107
    nsecs: 928279848
  frame_id: "map"
pose: 
  pose: 
    position: 
      x: 4.24026870324
      y: 2.19503272246
      z: 0.0
    orientation: 
      x: 0.0
      y: 0.0
      z: 0.715938906484
      w: 0.698162933836
  covariance: [0.009278318060676582, 3.515692159083983e-05, 0.0, 0.0, 0.0, 0.0, 3.515692158906347e-05, 0.0019651577955110966, 0.0, 0.0, 0.0, 0.0, 0.0, 0.0, 0.0, 0.0, 0.0, 0.0, 0.0, 0.0, 0.0, 0.0, 0.0, 0.0, 0.0, 0.0, 0.0, 0.0, 0.0, 0.0, 0.0, 0.0, 0.0, 0.0, 0.0, 0.0015490165950346883]
---
header: 
  seq: 72
  stamp: 
    secs: 1554453108
    nsecs: 529593374
  frame_id: "map"
pose: 
  pose: 
    position: 
      x: 4.2174172098
      y: 2.29334949328
      z: 0.0
    orientation: 
      x: 0.0
      y: 0.0
      z: 0.797860799816
      w: 0.602841723935
  covariance: [0.008358013728283709, 8.1681946026535e-05, 0.0, 0.0, 0.0, 0.0, 8.1681946026535e-05, 0.0019249310488742566, 0.0, 0.0, 0.0, 0.0, 0.0, 0.0, 0.0, 0.0, 0.0, 0.0, 0.0, 0.0, 0.0, 0.0, 0.0, 0.0, 0.0, 0.0, 0.0, 0.0, 0.0, 0.0, 0.0, 0.0, 0.0, 0.0, 0.0, 0.001378969121057958]
---
header: 
  seq: 73
  stamp: 
    secs: 1554453108
    nsecs: 932137932
  frame_id: "map"
pose: 
  pose: 
    position: 
      x: 4.18841686625
      y: 2.34942612238
      z: 0.0
    orientation: 
      x: 0.0
      y: 0.0
      z: 0.854848093095
      w: 0.518878345791
  covariance: [0.007226988930547407, 0.00047925588716779544, 0.0, 0.0, 0.0, 0.0, 0.00047925588716779544, 0.0017120363054363708, 0.0, 0.0, 0.0, 0.0, 0.0, 0.0, 0.0, 0.0, 0.0, 0.0, 0.0, 0.0, 0.0, 0.0, 0.0, 0.0, 0.0, 0.0, 0.0, 0.0, 0.0, 0.0, 0.0, 0.0, 0.0, 0.0, 0.0, 0.001251597428341868]
---
header: 
  seq: 74
  stamp: 
    secs: 1554453109
    nsecs: 934788006
  frame_id: "map"
pose: 
  pose: 
    position: 
      x: 4.08917189084
      y: 2.50391470479
      z: 0.0
    orientation: 
      x: 0.0
      y: 0.0
      z: 0.902904552246
      w: 0.429841098003
  covariance: [0.007644354426442845, 0.0003900682624955465, 0.0, 0.0, 0.0, 0.0, 0.0003900682624955465, 0.0015570005212826032, 0.0, 0.0, 0.0, 0.0, 0.0, 0.0, 0.0, 0.0, 0.0, 0.0, 0.0, 0.0, 0.0, 0.0, 0.0, 0.0, 0.0, 0.0, 0.0, 0.0, 0.0, 0.0, 0.0, 0.0, 0.0, 0.0, 0.0, 0.0012052017992607935]
---
header: 
  seq: 75
  stamp: 
    secs: 1554453111
    nsecs: 138659162
  frame_id: "map"
pose: 
  pose: 
    position: 
      x: 3.94450284555
      y: 2.66480740926
      z: 0.0
    orientation: 
      x: 0.0
      y: 0.0
      z: 0.93590117602
      w: 0.35226267007
  covariance: [0.009430678923006752, 0.000248019759693463, 0.0, 0.0, 0.0, 0.0, 0.000248019759693463, 0.0017874296334339235, 0.0, 0.0, 0.0, 0.0, 0.0, 0.0, 0.0, 0.0, 0.0, 0.0, 0.0, 0.0, 0.0, 0.0, 0.0, 0.0, 0.0, 0.0, 0.0, 0.0, 0.0, 0.0, 0.0, 0.0, 0.0, 0.0, 0.0, 0.0014349450953246997]
---
header: 
  seq: 76
  stamp: 
    secs: 1554453112
    nsecs: 343822129
  frame_id: "map"
pose: 
  pose: 
    position: 
      x: 3.76280611126
      y: 2.81387261148
      z: 0.0
    orientation: 
      x: 0.0
      y: 0.0
      z: 0.953368570004
      w: 0.301808498435
  covariance: [0.009002635167243866, 0.0012204777531970024, 0.0, 0.0, 0.0, 0.0, 0.0012204777531970024, 0.0018731005810250778, 0.0, 0.0, 0.0, 0.0, 0.0, 0.0, 0.0, 0.0, 0.0, 0.0, 0.0, 0.0, 0.0, 0.0, 0.0, 0.0, 0.0, 0.0, 0.0, 0.0, 0.0, 0.0, 0.0, 0.0, 0.0, 0.0, 0.0, 0.0012120929313186586]
---
header: 
  seq: 77
  stamp: 
    secs: 1554453113
    nsecs: 547705524
  frame_id: "map"
pose: 
  pose: 
    position: 
      x: 3.56216515874
      y: 2.92947030581
      z: 0.0
    orientation: 
      x: 0.0
      y: 0.0
      z: 0.974700953294
      w: 0.223512978699
  covariance: [0.008372662899516214, 0.0016179739566926088, 0.0, 0.0, 0.0, 0.0, 0.0016179739566926088, 0.0019685739758319443, 0.0, 0.0, 0.0, 0.0, 0.0, 0.0, 0.0, 0.0, 0.0, 0.0, 0.0, 0.0, 0.0, 0.0, 0.0, 0.0, 0.0, 0.0, 0.0, 0.0, 0.0, 0.0, 0.0, 0.0, 0.0, 0.0, 0.0, 0.0011534568344002396]
---
header: 
  seq: 78
  stamp: 
    secs: 1554453114
    nsecs: 751624961
  frame_id: "map"
pose: 
  pose: 
    position: 
      x: 3.36860921441
      y: 3.00168487363
      z: 0.0
    orientation: 
      x: 0.0
      y: 0.0
      z: 0.995351059318
      w: 0.0963133880324
  covariance: [0.007780005408738688, 0.0016291218162383103, 0.0, 0.0, 0.0, 0.0, 0.0016291218162383103, 0.002064243752181838, 0.0, 0.0, 0.0, 0.0, 0.0, 0.0, 0.0, 0.0, 0.0, 0.0, 0.0, 0.0, 0.0, 0.0, 0.0, 0.0, 0.0, 0.0, 0.0, 0.0, 0.0, 0.0, 0.0, 0.0, 0.0, 0.0, 0.0, 0.0010907213215013319]
---
header: 
  seq: 79
  stamp: 
    secs: 1554453115
    nsecs: 554205089
  frame_id: "map"
pose: 
  pose: 
    position: 
      x: 3.23288087008
      y: 3.01381074317
      z: 0.0
    orientation: 
      x: 0.0
      y: 0.0
      z: -0.999809943666
      w: 0.0194955519557
  covariance: [0.0067475148699802645, 0.0015063439452109861, 0.0, 0.0, 0.0, 0.0, 0.0015063439452092098, 0.002306013156999853, 0.0, 0.0, 0.0, 0.0, 0.0, 0.0, 0.0, 0.0, 0.0, 0.0, 0.0, 0.0, 0.0, 0.0, 0.0, 0.0, 0.0, 0.0, 0.0, 0.0, 0.0, 0.0, 0.0, 0.0, 0.0, 0.0, 0.0, 0.0010618871933402343]
---
header: 
  seq: 80
  stamp: 
    secs: 1554453116
    nsecs: 558271088
  frame_id: "map"
pose: 
  pose: 
    position: 
      x: 3.06748816135
      y: 2.99055047368
      z: 0.0
    orientation: 
      x: 0.0
      y: 0.0
      z: -0.992170379048
      w: 0.124891708854
  covariance: [0.006247120715709542, 0.0017010814317526268, 0.0, 0.0, 0.0, 0.0, 0.0017010814317526268, 0.00272493871014845, 0.0, 0.0, 0.0, 0.0, 0.0, 0.0, 0.0, 0.0, 0.0, 0.0, 0.0, 0.0, 0.0, 0.0, 0.0, 0.0, 0.0, 0.0, 0.0, 0.0, 0.0, 0.0, 0.0, 0.0, 0.0, 0.0, 0.0, 0.0010075180836899107]
---
header: 
  seq: 81
  stamp: 
    secs: 1554453117
    nsecs: 159417220
  frame_id: "map"
pose: 
  pose: 
    position: 
      x: 2.98859179821
      y: 2.95933013784
      z: 0.0
    orientation: 
      x: 0.0
      y: 0.0
      z: -0.967119033813
      w: 0.254324152288
  covariance: [0.005650585459751056, 0.0013275318301975148, 0.0, 0.0, 0.0, 0.0, 0.0013275318301975148, 0.002461374848540032, 0.0, 0.0, 0.0, 0.0, 0.0, 0.0, 0.0, 0.0, 0.0, 0.0, 0.0, 0.0, 0.0, 0.0, 0.0, 0.0, 0.0, 0.0, 0.0, 0.0, 0.0, 0.0, 0.0, 0.0, 0.0, 0.0, 0.0, 0.0008564795030292735]
---
header: 
  seq: 82
  stamp: 
    secs: 1554453117
    nsecs: 560728196
  frame_id: "map"
pose: 
  pose: 
    position: 
      x: 2.96053778846
      y: 2.93749921193
      z: 0.0
    orientation: 
      x: 0.0
      y: 0.0
      z: -0.935900329472
      w: 0.352264919194
  covariance: [0.004927842700119811, 0.0008929388639593583, 0.0, 0.0, 0.0, 0.0, 0.0008929388639593583, 0.0023108947455892093, 0.0, 0.0, 0.0, 0.0, 0.0, 0.0, 0.0, 0.0, 0.0, 0.0, 0.0, 0.0, 0.0, 0.0, 0.0, 0.0, 0.0, 0.0, 0.0, 0.0, 0.0, 0.0, 0.0, 0.0, 0.0, 0.0, 0.0, 0.0008025584620050165]
---
header: 
  seq: 83
  stamp: 
    secs: 1554453118
    nsecs: 563341603
  frame_id: "map"
pose: 
  pose: 
    position: 
      x: 2.90359545012
      y: 2.88028128084
      z: 0.0
    orientation: 
      x: 0.0
      y: 0.0
      z: -0.896065648674
      w: 0.443921562064
  covariance: [0.004628527592371867, 0.0006519916476772636, 0.0, 0.0, 0.0, 0.0, 0.0006519916476772636, 0.0021620640555344295, 0.0, 0.0, 0.0, 0.0, 0.0, 0.0, 0.0, 0.0, 0.0, 0.0, 0.0, 0.0, 0.0, 0.0, 0.0, 0.0, 0.0, 0.0, 0.0, 0.0, 0.0, 0.0, 0.0, 0.0, 0.0, 0.0, 0.0, 0.0007320472912715269]
---
header: 
  seq: 84
  stamp: 
    secs: 1554453118
    nsecs: 764623778
  frame_id: "map"
pose: 
  pose: 
    position: 
      x: 2.90710059225
      y: 2.87891320272
      z: 0.0
    orientation: 
      x: 0.0
      y: 0.0
      z: -0.83848961087
      w: 0.544917583184
  covariance: [0.00423577385167917, 0.00048660671966871405, 0.0, 0.0, 0.0, 0.0, 0.0004866067196704904, 0.0022679570362456047, 0.0, 0.0, 0.0, 0.0, 0.0, 0.0, 0.0, 0.0, 0.0, 0.0, 0.0, 0.0, 0.0, 0.0, 0.0, 0.0, 0.0, 0.0, 0.0, 0.0, 0.0, 0.0, 0.0, 0.0, 0.0, 0.0, 0.0, 0.0007344393438831196]
---
header: 
  seq: 85
  stamp: 
    secs: 1554453118
    nsecs: 964651954
  frame_id: "map"
pose: 
  pose: 
    position: 
      x: 2.91706975923
      y: 2.8829581852
      z: 0.0
    orientation: 
      x: 0.0
      y: 0.0
      z: -0.750501193139
      w: 0.660869093767
  covariance: [0.0038565016144787023, 0.0006383771967541918, 0.0, 0.0, 0.0, 0.0, 0.0006383771967541918, 0.002220222755090262, 0.0, 0.0, 0.0, 0.0, 0.0, 0.0, 0.0, 0.0, 0.0, 0.0, 0.0, 0.0, 0.0, 0.0, 0.0, 0.0, 0.0, 0.0, 0.0, 0.0, 0.0, 0.0, 0.0, 0.0, 0.0, 0.0, 0.0, 0.0006919995818556413]
---
header: 
  seq: 86
  stamp: 
    secs: 1554453119
    nsecs: 164679192
  frame_id: "map"
pose: 
  pose: 
    position: 
      x: 2.92516161482
      y: 2.88158963842
      z: 0.0
    orientation: 
      x: 0.0
      y: 0.0
      z: -0.629481329792
      w: 0.777015608237
  covariance: [0.0037128173825085042, 0.0007540494989140001, 0.0, 0.0, 0.0, 0.0, 0.0007540494989140001, 0.002481450973045085, 0.0, 0.0, 0.0, 0.0, 0.0, 0.0, 0.0, 0.0, 0.0, 0.0, 0.0, 0.0, 0.0, 0.0, 0.0, 0.0, 0.0, 0.0, 0.0, 0.0, 0.0, 0.0, 0.0, 0.0, 0.0, 0.0, 0.0, 0.0008644839237115838]
---
header: 
  seq: 87
  stamp: 
    secs: 1554453119
    nsecs: 365964388
  frame_id: "map"
pose: 
  pose: 
    position: 
      x: 2.92710687229
      y: 2.88282557432
      z: 0.0
    orientation: 
      x: 0.0
      y: 0.0
      z: -0.502302601434
      w: 0.864691908481
  covariance: [0.0033922363970475544, 0.0006933814680412098, 0.0, 0.0, 0.0, 0.0, 0.0006933814680412098, 0.002424485591440373, 0.0, 0.0, 0.0, 0.0, 0.0, 0.0, 0.0, 0.0, 0.0, 0.0, 0.0, 0.0, 0.0, 0.0, 0.0, 0.0, 0.0, 0.0, 0.0, 0.0, 0.0, 0.0, 0.0, 0.0, 0.0, 0.0, 0.0, 0.0008939631275967699]
---
header: 
  seq: 88
  stamp: 
    secs: 1554453119
    nsecs: 567234531
  frame_id: "map"
pose: 
  pose: 
    position: 
      x: 2.92812622476
      y: 2.88374033086
      z: 0.0
    orientation: 
      x: 0.0
      y: 0.0
      z: -0.382723850909
      w: 0.923862789566
  covariance: [0.003042577220210063, 0.00032933081775432527, 0.0, 0.0, 0.0, 0.0, 0.00032933081775432527, 0.002298986560058225, 0.0, 0.0, 0.0, 0.0, 0.0, 0.0, 0.0, 0.0, 0.0, 0.0, 0.0, 0.0, 0.0, 0.0, 0.0, 0.0, 0.0, 0.0, 0.0, 0.0, 0.0, 0.0, 0.0, 0.0, 0.0, 0.0, 0.0, 0.0008669728841483597]
---
header: 
  seq: 89
  stamp: 
    secs: 1554453119
    nsecs: 767255051
  frame_id: "map"
pose: 
  pose: 
    position: 
      x: 2.92567634372
      y: 2.8882606417
      z: 0.0
    orientation: 
      x: 0.0
      y: 0.0
      z: -0.260131159427
      w: 0.965573290794
  covariance: [0.003046951081044469, 0.00041877781307420037, 0.0, 0.0, 0.0, 0.0, 0.00041877781307420037, 0.0024605876864001175, 0.0, 0.0, 0.0, 0.0, 0.0, 0.0, 0.0, 0.0, 0.0, 0.0, 0.0, 0.0, 0.0, 0.0, 0.0, 0.0, 0.0, 0.0, 0.0, 0.0, 0.0, 0.0, 0.0, 0.0, 0.0, 0.0, 0.0, 0.0008146975630766324]
---
header: 
  seq: 90
  stamp: 
    secs: 1554453119
    nsecs: 968526027
  frame_id: "map"
pose: 
  pose: 
    position: 
      x: 2.92258621841
      y: 2.89073826451
      z: 0.0
    orientation: 
      x: 0.0
      y: 0.0
      z: -0.128208826613
      w: 0.991747193986
  covariance: [0.0029568830562247683, 0.0001716654441157317, 0.0, 0.0, 0.0, 0.0, 0.00017166544411395535, 0.0025043990391129256, 0.0, 0.0, 0.0, 0.0, 0.0, 0.0, 0.0, 0.0, 0.0, 0.0, 0.0, 0.0, 0.0, 0.0, 0.0, 0.0, 0.0, 0.0, 0.0, 0.0, 0.0, 0.0, 0.0, 0.0, 0.0, 0.0, 0.0, 0.0008446066180042468]
---
header: 
  seq: 91
  stamp: 
    secs: 1554453120
    nsecs: 172300575
  frame_id: "map"
pose: 
  pose: 
    position: 
      x: 2.92155800145
      y: 2.89254011689
      z: 0.0
    orientation: 
      x: 0.0
      y: 0.0
      z: 0.00763050404692
      w: 0.99997088728
  covariance: [0.003033366031978346, 0.00013120429962931723, 0.0, 0.0, 0.0, 0.0, 0.00013120429962931723, 0.0023382212457168094, 0.0, 0.0, 0.0, 0.0, 0.0, 0.0, 0.0, 0.0, 0.0, 0.0, 0.0, 0.0, 0.0, 0.0, 0.0, 0.0, 0.0, 0.0, 0.0, 0.0, 0.0, 0.0, 0.0, 0.0, 0.0, 0.0, 0.0, 0.0008687091796506312]
---
header: 
  seq: 92
  stamp: 
    secs: 1554453136
    nsecs: 823973395
  frame_id: "map"
pose: 
  pose: 
    position: 
      x: 3.15700043886
      y: 2.91838851445
      z: 0.0
    orientation: 
      x: 0.0
      y: 0.0
      z: 0.0485326886794
      w: 0.998821594745
  covariance: [0.002677543344960398, 0.00020775770470748967, 0.0, 0.0, 0.0, 0.0, 0.00020775770470748967, 0.0021654776453949864, 0.0, 0.0, 0.0, 0.0, 0.0, 0.0, 0.0, 0.0, 0.0, 0.0, 0.0, 0.0, 0.0, 0.0, 0.0, 0.0, 0.0, 0.0, 0.0, 0.0, 0.0, 0.0, 0.0, 0.0, 0.0, 0.0, 0.0, 0.0008938218895322117]
---
header: 
  seq: 93
  stamp: 
    secs: 1554453138
    nsecs:  29129487
  frame_id: "map"
pose: 
  pose: 
    position: 
      x: 3.39112528232
      y: 2.93824484866
      z: 0.0
    orientation: 
      x: 0.0
      y: 0.0
      z: 0.0507048888819
      w: 0.998713679812
  covariance: [0.002285663910500446, 0.00022506052444626334, 0.0, 0.0, 0.0, 0.0, 0.00022506052444626334, 0.0019213217946347783, 0.0, 0.0, 0.0, 0.0, 0.0, 0.0, 0.0, 0.0, 0.0, 0.0, 0.0, 0.0, 0.0, 0.0, 0.0, 0.0, 0.0, 0.0, 0.0, 0.0, 0.0, 0.0, 0.0, 0.0, 0.0, 0.0, 0.0, 0.0009259461135190133]
---
header: 
  seq: 94
  stamp: 
    secs: 1554453139
    nsecs: 233029601
  frame_id: "map"
pose: 
  pose: 
    position: 
      x: 3.62531281312
      y: 2.95980983897
      z: 0.0
    orientation: 
      x: 0.0
      y: 0.0
      z: 0.0450564172962
      w: 0.998984443953
  covariance: [0.0019594016333410735, 0.0001883892057801262, 0.0, 0.0, 0.0, 0.0, 0.00018838920577834983, 0.001911041364497379, 0.0, 0.0, 0.0, 0.0, 0.0, 0.0, 0.0, 0.0, 0.0, 0.0, 0.0, 0.0, 0.0, 0.0, 0.0, 0.0, 0.0, 0.0, 0.0, 0.0, 0.0, 0.0, 0.0, 0.0, 0.0, 0.0, 0.0, 0.0009395516843129061]
---
header: 
  seq: 95
  stamp: 
    secs: 1554453140
    nsecs: 438182255
  frame_id: "map"
pose: 
  pose: 
    position: 
      x: 3.8465390007
      y: 2.96996721003
      z: 0.0
    orientation: 
      x: 0.0
      y: 0.0
      z: 0.0106470066059
      w: 0.999943319019
  covariance: [0.0019975628931554468, 0.00019270552095029814, 0.0, 0.0, 0.0, 0.0, 0.00019270552095029814, 0.0016868426720435536, 0.0, 0.0, 0.0, 0.0, 0.0, 0.0, 0.0, 0.0, 0.0, 0.0, 0.0, 0.0, 0.0, 0.0, 0.0, 0.0, 0.0, 0.0, 0.0, 0.0, 0.0, 0.0, 0.0, 0.0, 0.0, 0.0, 0.0, 0.0009912868931402886]
---
header: 
  seq: 96
  stamp: 
    secs: 1554453141
    nsecs: 642069557
  frame_id: "map"
pose: 
  pose: 
    position: 
      x: 4.06984221749
      y: 2.96622505749
      z: 0.0
    orientation: 
      x: 0.0
      y: 0.0
      z: -0.0258324606955
      w: 0.999666286305
  covariance: [0.0020018513685577943, 0.00013956131966175178, 0.0, 0.0, 0.0, 0.0, 0.00013956131966352814, 0.0015693431787529022, 0.0, 0.0, 0.0, 0.0, 0.0, 0.0, 0.0, 0.0, 0.0, 0.0, 0.0, 0.0, 0.0, 0.0, 0.0, 0.0, 0.0, 0.0, 0.0, 0.0, 0.0, 0.0, 0.0, 0.0, 0.0, 0.0, 0.0, 0.0009564079820528978]
---
header: 
  seq: 97
  stamp: 
    secs: 1554453142
    nsecs: 845998473
  frame_id: "map"
pose: 
  pose: 
    position: 
      x: 4.29674376203
      y: 2.94812050235
      z: 0.0
    orientation: 
      x: 0.0
      y: 0.0
      z: -0.0546124381463
      w: 0.998507627212
  covariance: [0.0021427283542081454, 2.694006168901808e-05, 0.0, 0.0, 0.0, 0.0, 2.6940061687241723e-05, 0.0019363335706898965, 0.0, 0.0, 0.0, 0.0, 0.0, 0.0, 0.0, 0.0, 0.0, 0.0, 0.0, 0.0, 0.0, 0.0, 0.0, 0.0, 0.0, 0.0, 0.0, 0.0, 0.0, 0.0, 0.0, 0.0, 0.0, 0.0, 0.0, 0.0008905650475745155]
---
header: 
  seq: 98
  stamp: 
    secs: 1554453144
    nsecs:  49962180
  frame_id: "map"
pose: 
  pose: 
    position: 
      x: 4.50949324016
      y: 2.90216711219
      z: 0.0
    orientation: 
      x: 0.0
      y: 0.0
      z: -0.132101270087
      w: 0.991236225348
  covariance: [0.002342981350189177, -0.0002558152482254883, 0.0, 0.0, 0.0, 0.0, -0.0002558152482254883, 0.0019034430455064921, 0.0, 0.0, 0.0, 0.0, 0.0, 0.0, 0.0, 0.0, 0.0, 0.0, 0.0, 0.0, 0.0, 0.0, 0.0, 0.0, 0.0, 0.0, 0.0, 0.0, 0.0, 0.0, 0.0, 0.0, 0.0, 0.0, 0.0, 0.0009452956715660681]
---
header: 
  seq: 99
  stamp: 
    secs: 1554453145
    nsecs: 253785575
  frame_id: "map"
pose: 
  pose: 
    position: 
      x: 4.73351223569
      y: 2.83524505729
      z: 0.0
    orientation: 
      x: 0.0
      y: 0.0
      z: -0.133523244295
      w: 0.991045681708
  covariance: [0.002336442940805483, -0.0005662155377219591, 0.0, 0.0, 0.0, 0.0, -0.0005662155377219591, 0.002368874791525144, 0.0, 0.0, 0.0, 0.0, 0.0, 0.0, 0.0, 0.0, 0.0, 0.0, 0.0, 0.0, 0.0, 0.0, 0.0, 0.0, 0.0, 0.0, 0.0, 0.0, 0.0, 0.0, 0.0, 0.0, 0.0, 0.0, 0.0, 0.0010856772633565503]
---
header: 
  seq: 100
  stamp: 
    secs: 1554453146
    nsecs: 257655378
  frame_id: "map"
pose: 
  pose: 
    position: 
      x: 4.89637738827
      y: 2.77068048117
      z: 0.0
    orientation: 
      x: 0.0
      y: 0.0
      z: -0.235197513828
      w: 0.971947596061
  covariance: [0.002260560585046534, -0.0007588281255106466, 0.0, 0.0, 0.0, 0.0, -0.0007588281255106466, 0.002886815359239847, 0.0, 0.0, 0.0, 0.0, 0.0, 0.0, 0.0, 0.0, 0.0, 0.0, 0.0, 0.0, 0.0, 0.0, 0.0, 0.0, 0.0, 0.0, 0.0, 0.0, 0.0, 0.0, 0.0, 0.0, 0.0, 0.0, 0.0, 0.0010331670244624305]
---
header: 
  seq: 101
  stamp: 
    secs: 1554453147
    nsecs: 461556169
  frame_id: "map"
pose: 
  pose: 
    position: 
      x: 5.07309816846
      y: 2.6531165033
      z: 0.0
    orientation: 
      x: 0.0
      y: 0.0
      z: -0.334963581605
      w: 0.942231075161
  covariance: [0.002085833649491775, -0.0008703258918085766, 0.0, 0.0, 0.0, 0.0, -0.0008703258918085766, 0.003221949815410241, 0.0, 0.0, 0.0, 0.0, 0.0, 0.0, 0.0, 0.0, 0.0, 0.0, 0.0, 0.0, 0.0, 0.0, 0.0, 0.0, 0.0, 0.0, 0.0, 0.0, 0.0, 0.0, 0.0, 0.0, 0.0, 0.0, 0.0, 0.0011042288746235243]
---
header: 
  seq: 102
  stamp: 
    secs: 1554453148
    nsecs: 665453939
  frame_id: "map"
pose: 
  pose: 
    position: 
      x: 5.2204002758
      y: 2.50524934132
      z: 0.0
    orientation: 
      x: 0.0
      y: 0.0
      z: -0.430449652882
      w: 0.902614589032
  covariance: [0.0019811426036326907, -0.0007969284762197049, 0.0, 0.0, 0.0, 0.0, -0.0007969284762197049, 0.0031706537500788556, 0.0, 0.0, 0.0, 0.0, 0.0, 0.0, 0.0, 0.0, 0.0, 0.0, 0.0, 0.0, 0.0, 0.0, 0.0, 0.0, 0.0, 0.0, 0.0, 0.0, 0.0, 0.0, 0.0, 0.0, 0.0, 0.0, 0.0, 0.0010560821022645357]
---
header: 
  seq: 103
  stamp: 
    secs: 1554453149
    nsecs: 469320254
  frame_id: "map"
pose: 
  pose: 
    position: 
      x: 5.29111997131
      y: 2.3888618156
      z: 0.0
    orientation: 
      x: 0.0
      y: 0.0
      z: -0.530536153553
      w: 0.847662308808
  covariance: [0.0019052871770064428, -0.0007224369807872222, 0.0, 0.0, 0.0, 0.0, -0.0007224369807872222, 0.0031153117019000476, 0.0, 0.0, 0.0, 0.0, 0.0, 0.0, 0.0, 0.0, 0.0, 0.0, 0.0, 0.0, 0.0, 0.0, 0.0, 0.0, 0.0, 0.0, 0.0, 0.0, 0.0, 0.0, 0.0, 0.0, 0.0, 0.0, 0.0, 0.0009659330663108232]
---
header: 
  seq: 104
  stamp: 
    secs: 1554453150
    nsecs:  70625134
  frame_id: "map"
pose: 
  pose: 
    position: 
      x: 5.31950447318
      y: 2.30687634929
      z: 0.0
    orientation: 
      x: 0.0
      y: 0.0
      z: -0.641416764746
      w: 0.767192631549
  covariance: [0.001867813810854102, -0.0007761789866478352, 0.0, 0.0, 0.0, 0.0, -0.0007761789866496116, 0.003169389366587616, 0.0, 0.0, 0.0, 0.0, 0.0, 0.0, 0.0, 0.0, 0.0, 0.0, 0.0, 0.0, 0.0, 0.0, 0.0, 0.0, 0.0, 0.0, 0.0, 0.0, 0.0, 0.0, 0.0, 0.0, 0.0, 0.0, 0.0, 0.0009359829714683292]
---
header: 
  seq: 105
  stamp: 
    secs: 1554453150
    nsecs: 471931370
  frame_id: "map"
pose: 
  pose: 
    position: 
      x: 5.32081049222
      y: 2.25131431919
      z: 0.0
    orientation: 
      x: 0.0
      y: 0.0
      z: -0.727606305845
      w: 0.685994944365
  covariance: [0.0018342065747845027, -0.0007228057483530392, 0.0, 0.0, 0.0, 0.0, -0.0007228057483530392, 0.003158609448993488, 0.0, 0.0, 0.0, 0.0, 0.0, 0.0, 0.0, 0.0, 0.0, 0.0, 0.0, 0.0, 0.0, 0.0, 0.0, 0.0, 0.0, 0.0, 0.0, 0.0, 0.0, 0.0, 0.0, 0.0, 0.0, 0.0, 0.0, 0.0009183687751715721]
---
header: 
  seq: 106
  stamp: 
    secs: 1554453150
    nsecs: 874472074
  frame_id: "map"
pose: 
  pose: 
    position: 
      x: 5.3151885331
      y: 2.20793654081
      z: 0.0
    orientation: 
      x: 0.0
      y: 0.0
      z: -0.808558709383
      w: 0.588415510911
  covariance: [0.0017547214779725095, -0.0006838236801378628, 0.0, 0.0, 0.0, 0.0, -0.0006838236801396391, 0.002848815587070952, 0.0, 0.0, 0.0, 0.0, 0.0, 0.0, 0.0, 0.0, 0.0, 0.0, 0.0, 0.0, 0.0, 0.0, 0.0, 0.0, 0.0, 0.0, 0.0, 0.0, 0.0, 0.0, 0.0, 0.0, 0.0, 0.0, 0.0, 0.0009430020593327437]
---
header: 
  seq: 107
  stamp: 
    secs: 1554453151
    nsecs: 275797320
  frame_id: "map"
pose: 
  pose: 
    position: 
      x: 5.2923542028
      y: 2.16451670622
      z: 0.0
    orientation: 
      x: 0.0
      y: 0.0
      z: -0.884185042796
      w: 0.467136821602
  covariance: [0.0015082600972320392, -0.0006185822182960266, 0.0, 0.0, 0.0, 0.0, -0.0006185822182942502, 0.0025921033652487324, 0.0, 0.0, 0.0, 0.0, 0.0, 0.0, 0.0, 0.0, 0.0, 0.0, 0.0, 0.0, 0.0, 0.0, 0.0, 0.0, 0.0, 0.0, 0.0, 0.0, 0.0, 0.0, 0.0, 0.0, 0.0, 0.0, 0.0, 0.0008067886055395529]
---
header: 
  seq: 108
  stamp: 
    secs: 1554453151
    nsecs: 877361886
  frame_id: "map"
pose: 
  pose: 
